{
    "quality_of_life_index": "An estimation of overall life quality. The highest weight is given to pollution, as it's fundamental to all aspects of life. Second is safety, followed by CPI measures, health indexes and purchasing powers. A high value is very positive.  </br></br> Cities in Canada and Australia rate very well",
    "quality_of_life_index_check": "true",
    "purchasing_index": "Purchasing power measures the affordability of goods and services compared to the average income of a place. New York City is the baseline comparison value, so any lines higher than New York show the purchasing power in that city is greater. </br> </br>  The Middle East and Eastern Europe is generally very low.",
    "purchasing_index_check": "true",
    "safety_index": "A measure of the safety in a city. A high value means the city is considered very safe. The index is calculated based on values such as feeling safe alone or at home, level of drug or violence problems in the city, as well as if crime figures are increasing or falling.",
    "safety_index_check": "true",
    "health_care_index": "An estimation of the overall quality of the health care system. This includes the number of health care professionals, sophistication of equipment, waiting times, location of services, friendliness ratings and where applicable; cost.</br> </br> Bangkok is rated highest. ",
    "health_care_index_check":"true",
    "cpi_index": "CPI INFO",
    "property_ratio_index": "",
    "traffic_index": "Traffics index INFO",
    "pollution_index": "pollution_index INFO",

    
    "quality_of_life_data": [
        {
            "city": "Adelaide SA, Australia",
            "lat": -34.92862119999999,
            "lng": 138.5999594,
            "quality_of_life_index": 176.71,
            "purchasing_index": 104.04,
            "safety_index": 58.35,
            "health_care_index": 61.11,
            "cpi_index": 103.12,
            "property_ratio_index": 4.97,
            "traffic_index": 20.2,
            "pollution_index": 25.99
        },
        {
            "city": "Ahmedabad, Gujarat, India",
            "lat": 23.022505,
            "lng": 72.5713621,
            "quality_of_life_index": 108.2,
            "purchasing_index": 66.1,
            "safety_index": 76.59,
            "health_care_index": 67.13,
            "cpi_index": 103.12,
            "property_ratio_index": 6.77,
            "traffic_index": 49,
            "pollution_index": 70.47
        },
        {
            "city": "Amman, Jordan",
            "lat": 31.9565783,
            "lng": 35.9456951,
            "quality_of_life_index": 39.95,
            "purchasing_index": 37.58,
            "safety_index": 49.73,
            "health_care_index": 72.72,
            "cpi_index": 103.12,
            "property_ratio_index": 8.07,
            "traffic_index": 60.2,
            "pollution_index": 77.27
        },
        {
            "city": "Ankara/Ankara Province, Turkey",
            "lat": 39.92077,
            "lng": 32.85411,
            "quality_of_life_index": 71.93,
            "purchasing_index": 63.7,
            "safety_index": 60.95,
            "health_care_index": 42.47,
            "cpi_index": 103.12,
            "property_ratio_index": 5.26,
            "traffic_index": 44.83,
            "pollution_index": 81.11
        },
        {
            "city": "Athens, Greece",
            "lat": 37.983917,
            "lng": 23.7293599,
            "quality_of_life_index": 43.14,
            "purchasing_index": 41.8,
            "safety_index": 47.65,
            "health_care_index": 48.94,
            "cpi_index": 103.12,
            "property_ratio_index": 12.94,
            "traffic_index": 41.64,
            "pollution_index": 59.82
        },
        {
            "city": "Auckland, New Zealand",
            "lat": -36.8484597,
            "lng": 174.7633315,
            "quality_of_life_index": 147.94,
            "purchasing_index": 89.13,
            "safety_index": 50.63,
            "health_care_index": 72.13,
            "cpi_index": 103.12,
            "property_ratio_index": 6.35,
            "traffic_index": 34,
            "pollution_index": 29.02
        },
        {
            "city": "Bangalore, Karnataka, India",
            "lat": 12.9715987,
            "lng": 77.5945627,
            "quality_of_life_index": 90.1,
            "purchasing_index": 74.25,
            "safety_index": 49.59,
            "health_care_index": 69.38,
            "cpi_index": 103.12,
            "property_ratio_index": 8.13,
            "traffic_index": 45.12,
            "pollution_index": 76.56
        },
        {
            "city": "Bangkok, Thailand",
            "lat": 13.7278956,
            "lng": 100.5241235,
            "quality_of_life_index": 46.89,
            "purchasing_index": 39.31,
            "safety_index": 62.05,
            "health_care_index": 90.15,
            "cpi_index": 103.12,
            "property_ratio_index": 19.91,
            "traffic_index": 36.5,
            "pollution_index": 80.41
        },
        {
            "city": "Banja Luka, Bosnia and Herzegovina",
            "lat": 44.7755294,
            "lng": 17.2149671,
            "quality_of_life_index": 69.29,
            "purchasing_index": 42.62,
            "safety_index": 66.33,
            "health_care_index": 39.35,
            "cpi_index": 103.12,
            "property_ratio_index": 13.08,
            "traffic_index": 24.6,
            "pollution_index": 59
        },
        {
            "city": "Barcelona, Spain",
            "lat": 41.3850639,
            "lng": 2.1734035,
            "quality_of_life_index": 83.25,
            "purchasing_index": 66.67,
            "safety_index": 59.13,
            "health_care_index": 69.75,
            "cpi_index": 103.12,
            "property_ratio_index": 12.96,
            "traffic_index": 28.71,
            "pollution_index": 70.94
        },
        {
            "city": "Beirut, Lebanon",
            "lat": 33.8886289,
            "lng": 35.4954794,
            "quality_of_life_index": 13.51,
            "purchasing_index": 40.45,
            "safety_index": 50.02,
            "health_care_index": 63.43,
            "cpi_index": 103.12,
            "property_ratio_index": 18.66,
            "traffic_index": 41.75,
            "pollution_index": 88.25
        },
        {
            "city": "Belgrade, Serbia",
            "lat": 44.8205556,
            "lng": 20.4622222,
            "quality_of_life_index": 63.97,
            "purchasing_index": 39.64,
            "safety_index": 63.96,
            "health_care_index": 52.72,
            "cpi_index": 103.12,
            "property_ratio_index": 18.04,
            "traffic_index": 26,
            "pollution_index": 54.95
        },
        {
            "city": "Bergen, Norway",
            "lat": 60.39126279999999,
            "lng": 5.3220544,
            "quality_of_life_index": 196.96,
            "purchasing_index": 99.55,
            "safety_index": 84.27,
            "health_care_index": 89.4,
            "cpi_index": 103.12,
            "property_ratio_index": 9.05,
            "traffic_index": 28.4,
            "pollution_index": 15.19
        },
        {
            "city": "Berlin, Germany",
            "lat": 52.52000659999999,
            "lng": 13.404954,
            "quality_of_life_index": 173.06,
            "purchasing_index": 99.44,
            "safety_index": 72.25,
            "health_care_index": 73.08,
            "cpi_index": 103.12,
            "property_ratio_index": 6.22,
            "traffic_index": 49.46,
            "pollution_index": 28.04
        },
        {
            "city": "Bogotá, Bogota, Colombia",
            "lat": 4.598055599999999,
            "lng": -74.0758333,
            "quality_of_life_index": 24.82,
            "purchasing_index": 30.24,
            "safety_index": 44.31,
            "health_care_index": 63.89,
            "cpi_index": 103.12,
            "property_ratio_index": 15.97,
            "traffic_index": 45.5,
            "pollution_index": 69.85
        },
        {
            "city": "Boston, MA, USA",
            "lat": 42.3584308,
            "lng": -71.0597732,
            "quality_of_life_index": 192.59,
            "purchasing_index": 115.63,
            "safety_index": 61.21,
            "health_care_index": 79.35,
            "cpi_index": 103.12,
            "property_ratio_index": 4.62,
            "traffic_index": 42.4,
            "pollution_index": 24.59
        },
        {
            "city": "Brisbane QLD, Australia",
            "lat": -27.4710107,
            "lng": 153.0234489,
            "quality_of_life_index": 167.15,
            "purchasing_index": 93.27,
            "safety_index": 62.65,
            "health_care_index": 75.15,
            "cpi_index": 103.12,
            "property_ratio_index": 5.58,
            "traffic_index": 45.82,
            "pollution_index": 20.33
        },
        {
            "city": "Brno, Czech Republic",
            "lat": 49.1950602,
            "lng": 16.6068371,
            "quality_of_life_index": 116.97,
            "purchasing_index": 62.88,
            "safety_index": 65.13,
            "health_care_index": 56.76,
            "cpi_index": 103.12,
            "property_ratio_index": 10.2,
            "traffic_index": 30.22,
            "pollution_index": 41.02
        },
        {
            "city": "1000 Brussels, Belgium",
            "lat": 50.84999999999999,
            "lng": 4.35,
            "quality_of_life_index": 115.01,
            "purchasing_index": 89.83,
            "safety_index": 48.65,
            "health_care_index": 70.56,
            "cpi_index": 103.12,
            "property_ratio_index": 5.85,
            "traffic_index": 24.33,
            "pollution_index": 66.96
        },
        {
            "city": "Bucharest, Romania",
            "lat": 44.4325,
            "lng": 26.1038889,
            "quality_of_life_index": 28.24,
            "purchasing_index": 37.19,
            "safety_index": 68.11,
            "health_care_index": 50.27,
            "cpi_index": 103.12,
            "property_ratio_index": 14.01,
            "traffic_index": 38.12,
            "pollution_index": 92.66
        },
        {
            "city": "Budapest, Hungary",
            "lat": 47.497912,
            "lng": 19.040235,
            "quality_of_life_index": 74.71,
            "purchasing_index": 46.64,
            "safety_index": 61.58,
            "health_care_index": 48.67,
            "cpi_index": 103.12,
            "property_ratio_index": 9.67,
            "traffic_index": 41.54,
            "pollution_index": 55.1
        },
        {
            "city": "Buenos Aires, Argentina",
            "lat": -34.6037232,
            "lng": -58.3815931,
            "quality_of_life_index": 77.8,
            "purchasing_index": 57.75,
            "safety_index": 44.86,
            "health_care_index": 81.6,
            "cpi_index": 103.12,
            "property_ratio_index": 10.47,
            "traffic_index": 47.22,
            "pollution_index": 60.59
        },
        {
            "city": "Cairo, Cairo Governorate, Egypt",
            "lat": 30.0444196,
            "lng": 31.2357116,
            "quality_of_life_index": -4.08,
            "purchasing_index": 26.52,
            "safety_index": 46.87,
            "health_care_index": 56.09,
            "cpi_index": 103.12,
            "property_ratio_index": 10.78,
            "traffic_index": 64.5,
            "pollution_index": 97.07
        },
        {
            "city": "Calgary, AB, Canada",
            "lat": 51.0453246,
            "lng": -114.0581012,
            "quality_of_life_index": 196.6,
            "purchasing_index": 118.8,
            "safety_index": 66.9,
            "health_care_index": 71.05,
            "cpi_index": 103.12,
            "property_ratio_index": 5.41,
            "traffic_index": 40.36,
            "pollution_index": 22.57
        },
        {
            "city": "Canberra ACT 2601, Australia",
            "lat": -35.2819998,
            "lng": 149.1286843,
            "quality_of_life_index": 236.98,
            "purchasing_index": 132.66,
            "safety_index": 64.47,
            "health_care_index": 81.85,
            "cpi_index": 103.12,
            "property_ratio_index": 4.63,
            "traffic_index": 10.8,
            "pollution_index": 14.76
        },
        {
            "city": "Cape Town, South Africa",
            "lat": -33.9248685,
            "lng": 18.4240553,
            "quality_of_life_index": 147.8,
            "purchasing_index": 96.95,
            "safety_index": 30.09,
            "health_care_index": 71.3,
            "cpi_index": 103.12,
            "property_ratio_index": 4.6,
            "traffic_index": 42.44,
            "pollution_index": 32.58
        },
        {
            "city": "Caracas, Venezuela",
            "lat": 10.5,
            "lng": -66.9166667,
            "quality_of_life_index": -35.54,
            "purchasing_index": 18,
            "safety_index": 17.67,
            "health_care_index": 45.49,
            "cpi_index": 103.12,
            "property_ratio_index": 18.98,
            "traffic_index": 38.75,
            "pollution_index": 72.65
        },
        {
            "city": "Chennai, Tamil Nadu, India",
            "lat": 13.0524139,
            "lng": 80.25082460000002,
            "quality_of_life_index": 68.12,
            "purchasing_index": 61.56,
            "safety_index": 64.07,
            "health_care_index": 65.69,
            "cpi_index": 103.12,
            "property_ratio_index": 15.4,
            "traffic_index": 47.33,
            "pollution_index": 79.45
        },
        {
            "city": "Chicago, IL, USA",
            "lat": 41.8781136,
            "lng": -87.6297982,
            "quality_of_life_index": 175.19,
            "purchasing_index": 117.29,
            "safety_index": 45.09,
            "health_care_index": 62.92,
            "cpi_index": 103.12,
            "property_ratio_index": 2.82,
            "traffic_index": 33,
            "pollution_index": 34.04
        },
        {
            "city": "Cluj-Napoca 400000, Romania",
            "lat": 46.76666669999999,
            "lng": 23.5833333,
            "quality_of_life_index": 107.89,
            "purchasing_index": 40.47,
            "safety_index": 77.27,
            "health_care_index": 57.14,
            "cpi_index": 103.12,
            "property_ratio_index": 12.66,
            "traffic_index": 23.2,
            "pollution_index": 37.72
        },
        {
            "city": "Coimbatore, Tamil Nadu, India",
            "lat": 11.0168445,
            "lng": 76.9558321,
            "quality_of_life_index": 68.23,
            "purchasing_index": 45.17,
            "safety_index": 46.5,
            "health_care_index": 80.56,
            "cpi_index": 103.12,
            "property_ratio_index": 10.99,
            "traffic_index": 63.75,
            "pollution_index": 58.27
        },
        {
            "city": "Copenhagen, Denmark",
            "lat": 55.6760968,
            "lng": 12.5683371,
            "quality_of_life_index": 174.66,
            "purchasing_index": 97.83,
            "safety_index": 69.37,
            "health_care_index": 85.74,
            "cpi_index": 103.12,
            "property_ratio_index": 6.54,
            "traffic_index": 27.57,
            "pollution_index": 32.76
        },
        {
            "city": "Curitiba - Parana, Brazil",
            "lat": -25.4200388,
            "lng": -49.2650973,
            "quality_of_life_index": 54.19,
            "purchasing_index": 33.02,
            "safety_index": 41.42,
            "health_care_index": 55.69,
            "cpi_index": 103.12,
            "property_ratio_index": 15.9,
            "traffic_index": 28.25,
            "pollution_index": 44.83
        },
        {
            "city": "New Delhi, Delhi, India",
            "lat": 28.635308,
            "lng": 77.22496,
            "quality_of_life_index": 53.94,
            "purchasing_index": 63.59,
            "safety_index": 43.62,
            "health_care_index": 67.39,
            "cpi_index": 103.12,
            "property_ratio_index": 15.75,
            "traffic_index": 47.08,
            "pollution_index": 79.92
        },
        {
            "city": "Denver, CO, USA",
            "lat": 39.737567,
            "lng": -104.9847179,
            "quality_of_life_index": 205.94,
            "purchasing_index": 133.98,
            "safety_index": 60.4,
            "health_care_index": 82.59,
            "cpi_index": 103.12,
            "property_ratio_index": 1.81,
            "traffic_index": 43.33,
            "pollution_index": 37.93
        },
        {
            "city": "Dubai - United Arab Emirates",
            "lat": 25.0476643,
            "lng": 55.1817407,
            "quality_of_life_index": 174.64,
            "purchasing_index": 115.52,
            "safety_index": 77.17,
            "health_care_index": 67.04,
            "cpi_index": 103.12,
            "property_ratio_index": 5.33,
            "traffic_index": 35.43,
            "pollution_index": 54.74
        },
        {
            "city": "Dublin, Ireland",
            "lat": 53.3498053,
            "lng": -6.2603097,
            "quality_of_life_index": 123.66,
            "purchasing_index": 88.34,
            "safety_index": 39.75,
            "health_care_index": 38.25,
            "cpi_index": 103.12,
            "property_ratio_index": 6.57,
            "traffic_index": 24.12,
            "pollution_index": 31.14
        },
        {
            "city": "Edmonton, AB, Canada",
            "lat": 53.544389,
            "lng": -113.4909267,
            "quality_of_life_index": 187.41,
            "purchasing_index": 102.13,
            "safety_index": 62.96,
            "health_care_index": 76.15,
            "cpi_index": 103.12,
            "property_ratio_index": 4.08,
            "traffic_index": 33.6,
            "pollution_index": 21.53
        },
        {
            "city": "Frankfurt, Germany",
            "lat": 50.1109221,
            "lng": 8.6821267,
            "quality_of_life_index": 214.97,
            "purchasing_index": 139.18,
            "safety_index": 72.48,
            "health_care_index": 63.1,
            "cpi_index": 103.12,
            "property_ratio_index": 5.07,
            "traffic_index": 28.75,
            "pollution_index": 31.29
        },
        {
            "city": "Hong Kong",
            "lat": 22.396428,
            "lng": 114.109497,
            "quality_of_life_index": 79.12,
            "purchasing_index": 68.36,
            "safety_index": 82.03,
            "health_care_index": 73.98,
            "cpi_index": 103.12,
            "property_ratio_index": 25.87,
            "traffic_index": 40.43,
            "pollution_index": 64.25
        },
        {
            "city": "Houston, TX, USA",
            "lat": 29.7601927,
            "lng": -95.36938959999999,
            "quality_of_life_index": 145.37,
            "purchasing_index": 120.57,
            "safety_index": 43.21,
            "health_care_index": 75.61,
            "cpi_index": 103.12,
            "property_ratio_index": 2.59,
            "traffic_index": 40.94,
            "pollution_index": 67.46
        },
        {
            "city": "Hyderabad, Andhra Pradesh, India",
            "lat": 17.385044,
            "lng": 78.486671,
            "quality_of_life_index": 80.33,
            "purchasing_index": 66.59,
            "safety_index": 59.24,
            "health_care_index": 62.77,
            "cpi_index": 103.12,
            "property_ratio_index": 6.93,
            "traffic_index": 50.45,
            "pollution_index": 82.88
        },
        {
            "city": "Istanbul, Turkey",
            "lat": 41.00527,
            "lng": 28.97696,
            "quality_of_life_index": 70.62,
            "purchasing_index": 56.89,
            "safety_index": 57.13,
            "health_care_index": 66.74,
            "cpi_index": 103.12,
            "property_ratio_index": 8.59,
            "traffic_index": 68.38,
            "pollution_index": 65.42
        },
        {
            "city": "Jakarta, Indonesia",
            "lat": -6.2087634,
            "lng": 106.845599,
            "quality_of_life_index": -6.99,
            "purchasing_index": 28.47,
            "safety_index": 46.89,
            "health_care_index": 48.06,
            "cpi_index": 103.12,
            "property_ratio_index": 17.51,
            "traffic_index": 56.43,
            "pollution_index": 87.29
        },
        {
            "city": "Johannesburg, South Africa",
            "lat": -26.2041028,
            "lng": 28.0473051,
            "quality_of_life_index": 108.14,
            "purchasing_index": 98.51,
            "safety_index": 16.39,
            "health_care_index": 60.62,
            "cpi_index": 103.12,
            "property_ratio_index": 3.24,
            "traffic_index": 36.83,
            "pollution_index": 62.51
        },
        {
            "city": "Kiev, Kyiv city, Ukraine",
            "lat": 50.4501,
            "lng": 30.5234,
            "quality_of_life_index": 17.55,
            "purchasing_index": 36.8,
            "safety_index": 49.24,
            "health_care_index": 40.58,
            "cpi_index": 103.12,
            "property_ratio_index": 16.99,
            "traffic_index": 33,
            "pollution_index": 81.09
        },
        {
            "city": "Kolkata, West Bengal, India",
            "lat": 22.572646,
            "lng": 88.36389500000001,
            "quality_of_life_index": 37.48,
            "purchasing_index": 55.61,
            "safety_index": 51.48,
            "health_care_index": 32.84,
            "cpi_index": 103.12,
            "property_ratio_index": 11.16,
            "traffic_index": 60.88,
            "pollution_index": 80.16
        },
        {
            "city": "Kuala Lumpur, Federal Territory of Kuala Lumpur, Malaysia",
            "lat": 3.139003,
            "lng": 101.686855,
            "quality_of_life_index": 65.61,
            "purchasing_index": 73.61,
            "safety_index": 26.05,
            "health_care_index": 57.24,
            "cpi_index": 103.12,
            "property_ratio_index": 9.23,
            "traffic_index": 43.67,
            "pollution_index": 70.48
        },
        {
            "city": "Lisbon, Portugal",
            "lat": 38.7222524,
            "lng": -9.1393366,
            "quality_of_life_index": 107.61,
            "purchasing_index": 54.64,
            "safety_index": 61.33,
            "health_care_index": 64.19,
            "cpi_index": 103.12,
            "property_ratio_index": 10.25,
            "traffic_index": 41.54,
            "pollution_index": 34.61
        },
        {
            "city": "Ljubljana, Slovenia",
            "lat": 46.05645089999999,
            "lng": 14.5080702,
            "quality_of_life_index": 122.43,
            "purchasing_index": 59.39,
            "safety_index": 65.41,
            "health_care_index": 60.96,
            "cpi_index": 103.12,
            "property_ratio_index": 11.88,
            "traffic_index": 20.8,
            "pollution_index": 31.84
        },
        {
            "city": "London, UK",
            "lat": 51.508515,
            "lng": -0.1254872,
            "quality_of_life_index": 96.94,
            "purchasing_index": 81.53,
            "safety_index": 54.26,
            "health_care_index": 74.07,
            "cpi_index": 103.12,
            "property_ratio_index": 14.76,
            "traffic_index": 47.53,
            "pollution_index": 51.38
        },
        {
            "city": "Madrid, Spain",
            "lat": 40.4167754,
            "lng": -3.7037902,
            "quality_of_life_index": 95.29,
            "purchasing_index": 68.46,
            "safety_index": 63.88,
            "health_care_index": 75.19,
            "cpi_index": 103.12,
            "property_ratio_index": 13.13,
            "traffic_index": 34.88,
            "pollution_index": 63.54
        },
        {
            "city": "Manchester, UK",
            "lat": 53.479324,
            "lng": -2.2484851,
            "quality_of_life_index": 114.21,
            "purchasing_index": 63.49,
            "safety_index": 47.75,
            "health_care_index": 86.11,
            "cpi_index": 103.12,
            "property_ratio_index": 6.23,
            "traffic_index": 45.25,
            "pollution_index": 37.11
        },
        {
            "city": "Melbourne VIC, Australia",
            "lat": -37.814107,
            "lng": 144.96328,
            "quality_of_life_index": 171.77,
            "purchasing_index": 107.25,
            "safety_index": 59.17,
            "health_care_index": 76.31,
            "cpi_index": 103.12,
            "property_ratio_index": 8.3,
            "traffic_index": 40.81,
            "pollution_index": 24.25
        },
        {
            "city": "Mexico City, Federal District, Mexico",
            "lat": 19.4326077,
            "lng": -99.133208,
            "quality_of_life_index": 53.89,
            "purchasing_index": 60.1,
            "safety_index": 34.72,
            "health_care_index": 64.58,
            "cpi_index": 103.12,
            "property_ratio_index": 7.52,
            "traffic_index": 50.56,
            "pollution_index": 78.55
        },
        {
            "city": "Milan, Italy",
            "lat": 45.4654542,
            "lng": 9.186516,
            "quality_of_life_index": 56.18,
            "purchasing_index": 73,
            "safety_index": 47.76,
            "health_care_index": 67.54,
            "cpi_index": 103.12,
            "property_ratio_index": 17.48,
            "traffic_index": 44,
            "pollution_index": 74.36
        },
        {
            "city": "Montreal, QC, Canada",
            "lat": 45.5086699,
            "lng": -73.55399249999999,
            "quality_of_life_index": 153.89,
            "purchasing_index": 100.23,
            "safety_index": 62.08,
            "health_care_index": 69.19,
            "cpi_index": 103.12,
            "property_ratio_index": 4.86,
            "traffic_index": 48.13,
            "pollution_index": 42.06
        },
        {
            "city": "Moscow, Russia",
            "lat": 55.755826,
            "lng": 37.6173,
            "quality_of_life_index": -1.12,
            "purchasing_index": 47.11,
            "safety_index": 46.46,
            "health_care_index": 47.46,
            "cpi_index": 103.12,
            "property_ratio_index": 21.08,
            "traffic_index": 58,
            "pollution_index": 85.86
        },
        {
            "city": "Mumbai, Maharashtra, India",
            "lat": 19.0759837,
            "lng": 72.8776559,
            "quality_of_life_index": -5.06,
            "purchasing_index": 47.84,
            "safety_index": 58.12,
            "health_care_index": 63.86,
            "cpi_index": 103.12,
            "property_ratio_index": 28.53,
            "traffic_index": 74.8,
            "pollution_index": 92.7
        },
        {
            "city": "New York, NY, USA",
            "lat": 40.7143528,
            "lng": -74.00597309999999,
            "quality_of_life_index": 125.73,
            "purchasing_index": 100,
            "safety_index": 54.21,
            "health_care_index": 54.82,
            "cpi_index": 103.12,
            "property_ratio_index": 7.85,
            "traffic_index": 39.38,
            "pollution_index": 51.95
        },
        {
            "city": "Oslo, Norway",
            "lat": 59.9138688,
            "lng": 10.7522454,
            "quality_of_life_index": 149,
            "purchasing_index": 94.63,
            "safety_index": 58.35,
            "health_care_index": 73.44,
            "cpi_index": 103.12,
            "property_ratio_index": 8.4,
            "traffic_index": 32,
            "pollution_index": 30.08
        },
        {
            "city": "Ottawa, ON, Canada",
            "lat": 45.4215296,
            "lng": -75.69719309999999,
            "quality_of_life_index": 218.77,
            "purchasing_index": 131.88,
            "safety_index": 76.09,
            "health_care_index": 68.64,
            "cpi_index": 103.12,
            "property_ratio_index": 4.9,
            "traffic_index": 40,
            "pollution_index": 22.46
        },
        {
            "city": "Paris, France",
            "lat": 48.856614,
            "lng": 2.3522219,
            "quality_of_life_index": 94.51,
            "purchasing_index": 88.48,
            "safety_index": 47.39,
            "health_care_index": 83.33,
            "cpi_index": 103.12,
            "property_ratio_index": 15.87,
            "traffic_index": 35.67,
            "pollution_index": 62.47
        },
        {
            "city": "Perth WA, Australia",
            "lat": -31.9530044,
            "lng": 115.8574693,
            "quality_of_life_index": 168.51,
            "purchasing_index": 102.81,
            "safety_index": 56.52,
            "health_care_index": 74.95,
            "cpi_index": 103.12,
            "property_ratio_index": 7.47,
            "traffic_index": 38.45,
            "pollution_index": 21.02
        },
        {
            "city": "Porto, Portugal",
            "lat": 41.1566892,
            "lng": -8.6239254,
            "quality_of_life_index": 123.2,
            "purchasing_index": 57.14,
            "safety_index": 60.29,
            "health_care_index": 69.17,
            "cpi_index": 103.12,
            "property_ratio_index": 7.64,
            "traffic_index": 22.29,
            "pollution_index": 39
        },
        {
            "city": "Prague, Czech Republic",
            "lat": 50.0755381,
            "lng": 14.4378005,
            "quality_of_life_index": 125.25,
            "purchasing_index": 64.1,
            "safety_index": 67.37,
            "health_care_index": 70.71,
            "cpi_index": 103.12,
            "property_ratio_index": 12.87,
            "traffic_index": 34.33,
            "pollution_index": 35.13
        },
        {
            "city": "Pune, Maharashtra, India",
            "lat": 18.5204303,
            "lng": 73.8567437,
            "quality_of_life_index": 79.09,
            "purchasing_index": 77.54,
            "safety_index": 51.43,
            "health_care_index": 67.01,
            "cpi_index": 103.12,
            "property_ratio_index": 10.37,
            "traffic_index": 64,
            "pollution_index": 77.12
        },
        {
            "city": "Rio - Rio de Janeiro, Brazil",
            "lat": -22.9133954,
            "lng": -43.20071009999999,
            "quality_of_life_index": 7.51,
            "purchasing_index": 44.99,
            "safety_index": 28.03,
            "health_care_index": 47.09,
            "cpi_index": 103.12,
            "property_ratio_index": 18.26,
            "traffic_index": 45,
            "pollution_index": 74.32
        },
        {
            "city": "Rome, Italy",
            "lat": 41.89401540000001,
            "lng": 12.4817381,
            "quality_of_life_index": 25.05,
            "purchasing_index": 58.99,
            "safety_index": 40.63,
            "health_care_index": 62.46,
            "cpi_index": 103.12,
            "property_ratio_index": 24.11,
            "traffic_index": 44.62,
            "pollution_index": 71.01
        },
        {
            "city": "Saint Petersburg, Russia",
            "lat": 59.9342802,
            "lng": 30.3350986,
            "quality_of_life_index": 10.08,
            "purchasing_index": 44.29,
            "safety_index": 46.67,
            "health_care_index": 53.33,
            "cpi_index": 103.12,
            "property_ratio_index": 16.47,
            "traffic_index": 62.5,
            "pollution_index": 84.52
        },
        {
            "city": "San Diego, CA, USA",
            "lat": 32.7153292,
            "lng": -117.1572551,
            "quality_of_life_index": 187.14,
            "purchasing_index": 141.65,
            "safety_index": 52.75,
            "health_care_index": 65.28,
            "cpi_index": 103.12,
            "property_ratio_index": 2.75,
            "traffic_index": 56.25,
            "pollution_index": 42.59
        },
        {
            "city": "San Francisco, CA, USA",
            "lat": 37.7749295,
            "lng": -122.4194155,
            "quality_of_life_index": 157.71,
            "purchasing_index": 103.91,
            "safety_index": 56.51,
            "health_care_index": 74.21,
            "cpi_index": 103.12,
            "property_ratio_index": 7.43,
            "traffic_index": 40.5,
            "pollution_index": 36.85
        },
        {
            "city": "Santiago, Santiago Metropolitan Region, Chile",
            "lat": -33.4691199,
            "lng": -70.641997,
            "quality_of_life_index": 51.95,
            "purchasing_index": 54.35,
            "safety_index": 51.08,
            "health_care_index": 61.57,
            "cpi_index": 103.12,
            "property_ratio_index": 9.87,
            "traffic_index": 50.6,
            "pollution_index": 79.29
        },
        {
            "city": "São Paulo, Brazil",
            "lat": -23.5505199,
            "lng": -46.63330939999999,
            "quality_of_life_index": 14.05,
            "purchasing_index": 44.96,
            "safety_index": 27.76,
            "health_care_index": 55.69,
            "cpi_index": 103.12,
            "property_ratio_index": 15.44,
            "traffic_index": 48.18,
            "pollution_index": 75.46
        },
        {
            "city": "Seattle, WA, USA",
            "lat": 47.6062095,
            "lng": -122.3320708,
            "quality_of_life_index": 179.34,
            "purchasing_index": 115.27,
            "safety_index": 59.66,
            "health_care_index": 67.87,
            "cpi_index": 103.12,
            "property_ratio_index": 4.38,
            "traffic_index": 42.5,
            "pollution_index": 31.28
        },
        {
            "city": "Shanghai, China",
            "lat": 31.230416,
            "lng": 121.473701,
            "quality_of_life_index": 23.9,
            "purchasing_index": 45.87,
            "safety_index": 74.72,
            "health_care_index": 66.93,
            "cpi_index": 103.12,
            "property_ratio_index": 28.57,
            "traffic_index": 34.33,
            "pollution_index": 89.83
        },
        {
            "city": "Singapore",
            "lat": 1.2800945,
            "lng": 103.8509491,
            "quality_of_life_index": 83.83,
            "purchasing_index": 64.02,
            "safety_index": 80.22,
            "health_care_index": 59.9,
            "cpi_index": 103.12,
            "property_ratio_index": 23,
            "traffic_index": 48.1,
            "pollution_index": 45.01
        },
        {
            "city": "Sofia, Bulgaria",
            "lat": 42.6978388,
            "lng": 23.3216697,
            "quality_of_life_index": 61.51,
            "purchasing_index": 41.96,
            "safety_index": 54.24,
            "health_care_index": 59.91,
            "cpi_index": 103.12,
            "property_ratio_index": 9.57,
            "traffic_index": 37.91,
            "pollution_index": 67.68
        },
        {
            "city": "Stockholm, Sweden",
            "lat": 59.32893000000001,
            "lng": 18.06491,
            "quality_of_life_index": 160.86,
            "purchasing_index": 97.09,
            "safety_index": 56.65,
            "health_care_index": 71.64,
            "cpi_index": 103.12,
            "property_ratio_index": 11.58,
            "traffic_index": 37.75,
            "pollution_index": 14.72
        },
        {
            "city": "Sydney NSW, Australia",
            "lat": -33.8674869,
            "lng": 151.2069902,
            "quality_of_life_index": 165.6,
            "purchasing_index": 101.08,
            "safety_index": 62.18,
            "health_care_index": 69.03,
            "cpi_index": 103.12,
            "property_ratio_index": 8.7,
            "traffic_index": 43.47,
            "pollution_index": 20.13
        },
        {
            "city": "Tallinn, Estonia",
            "lat": 59.43696079999999,
            "lng": 24.7535746,
            "quality_of_life_index": 140.7,
            "purchasing_index": 48.06,
            "safety_index": 68.91,
            "health_care_index": 74.54,
            "cpi_index": 103.12,
            "property_ratio_index": 12.54,
            "traffic_index": 25.5,
            "pollution_index": 9.57
        },
        {
            "city": "Tehran, Iran",
            "lat": 35.6961111,
            "lng": 51.4230556,
            "quality_of_life_index": -28.84,
            "purchasing_index": 29.6,
            "safety_index": 38.23,
            "health_care_index": 46.55,
            "cpi_index": 103.12,
            "property_ratio_index": 23.75,
            "traffic_index": 61,
            "pollution_index": 86.85
        },
        {
            "city": "Thessaloniki, Greece",
            "lat": 40.6393495,
            "lng": 22.9446064,
            "quality_of_life_index": 96.01,
            "purchasing_index": 43.27,
            "safety_index": 67.57,
            "health_care_index": 69.41,
            "cpi_index": 103.12,
            "property_ratio_index": 11.66,
            "traffic_index": 20.5,
            "pollution_index": 47.28
        },
        {
            "city": "Tokyo, Japan",
            "lat": 35.6894875,
            "lng": 139.6917064,
            "quality_of_life_index": 159.93,
            "purchasing_index": 93.46,
            "safety_index": 80.47,
            "health_care_index": 78.7,
            "cpi_index": 103.12,
            "property_ratio_index": 7.89,
            "traffic_index": 47.64,
            "pollution_index": 37.8
        },
        {
            "city": "Toronto, ON, Canada",
            "lat": 43.653226,
            "lng": -79.3831843,
            "quality_of_life_index": 171.6,
            "purchasing_index": 101.75,
            "safety_index": 71.34,
            "health_care_index": 70.87,
            "cpi_index": 103.12,
            "property_ratio_index": 7.96,
            "traffic_index": 40.11,
            "pollution_index": 30.27
        },
        {
            "city": "Trondheim, Norway",
            "lat": 63.4305149,
            "lng": 10.3950528,
            "quality_of_life_index": 192.96,
            "purchasing_index": 92.49,
            "safety_index": 80.2,
            "health_care_index": 84.81,
            "cpi_index": 103.12,
            "property_ratio_index": 6.88,
            "traffic_index": 19.14,
            "pollution_index": 13.19
        },
        {
            "city": "Ulaanbaatar, Mongolia",
            "lat": 47.91999999999999,
            "lng": 106.92,
            "quality_of_life_index": -27.1,
            "purchasing_index": 25.38,
            "safety_index": 33.77,
            "health_care_index": 27.23,
            "cpi_index": 103.12,
            "property_ratio_index": 15.7,
            "traffic_index": 36.86,
            "pollution_index": 94.98
        },
        {
            "city": "Vancouver, BC, Canada",
            "lat": 49.261226,
            "lng": -123.1139268,
            "quality_of_life_index": 159.16,
            "purchasing_index": 91.55,
            "safety_index": 64.68,
            "health_care_index": 81.09,
            "cpi_index": 103.12,
            "property_ratio_index": 9.93,
            "traffic_index": 40.75,
            "pollution_index": 26.58
        },
        {
            "city": "Vienna, Austria",
            "lat": 48.2081743,
            "lng": 16.3738189,
            "quality_of_life_index": 169.65,
            "purchasing_index": 94.09,
            "safety_index": 70.09,
            "health_care_index": 77.78,
            "cpi_index": 103.12,
            "property_ratio_index": 12.51,
            "traffic_index": 25.33,
            "pollution_index": 25.18
        },
        {
            "city": "Vilnius, Lithuania",
            "lat": 54.6871555,
            "lng": 25.2796514,
            "quality_of_life_index": 130.05,
            "purchasing_index": 43.84,
            "safety_index": 70.83,
            "health_care_index": 72.99,
            "cpi_index": 103.12,
            "property_ratio_index": 13.61,
            "traffic_index": 25.71,
            "pollution_index": 16.08
        },
        {
            "city": "Warsaw, Poland",
            "lat": 52.2296756,
            "lng": 21.0122287,
            "quality_of_life_index": 94.04,
            "purchasing_index": 63.5,
            "safety_index": 65.56,
            "health_care_index": 55.16,
            "cpi_index": 103.12,
            "property_ratio_index": 12.47,
            "traffic_index": 37.5,
            "pollution_index": 55.79
        },
        {
            "city": "Wellington, New Zealand",
            "lat": -41.2864603,
            "lng": 174.776236,
            "quality_of_life_index": 185.75,
            "purchasing_index": 91.81,
            "safety_index": 69.22,
            "health_care_index": 73.52,
            "cpi_index": 103.12,
            "property_ratio_index": 5.31,
            "traffic_index": 27.5,
            "pollution_index": 14.52
        },
        {
            "city": "Wroclaw, Poland",
            "lat": 51.1078852,
            "lng": 17.0385376,
            "quality_of_life_index": 93.13,
            "purchasing_index": 56.11,
            "safety_index": 65.42,
            "health_care_index": 57.6,
            "cpi_index": 103.12,
            "property_ratio_index": 10.99,
            "traffic_index": 35.86,
            "pollution_index": 55.06
        },
        {
            "city": "Zagreb, Croatia",
            "lat": 45.8130293,
            "lng": 15.9778949,
            "quality_of_life_index": 102.87,
            "purchasing_index": 49.88,
            "safety_index": 67.39,
            "health_care_index": 62.5,
            "cpi_index": 103.12,
            "property_ratio_index": 13.84,
            "traffic_index": 33.86,
            "pollution_index": 34.93
        },
        {
            "city": "Zurich, Switzerland",
            "lat": 47.3686498,
            "lng": 8.539182499999999,
            "quality_of_life_index": 208.21,
            "purchasing_index": 124.64,
            "safety_index": 78.9,
            "health_care_index": 75.61,
            "cpi_index": 103.12,
            "property_ratio_index": 8.69,
            "traffic_index": 24.8,
            "pollution_index": 17.14
        }
    ]
}